{
    "title": "Map IIT-B",
    "center": {
        "lat": "16.636192",
        "lng": "8.437500"
    },
    "markers": [
        {
            "name": "Satwik Kottur",
            "lat": "34.019357211047385",
            "lng": "-118.28586122448723",
            "ldapid": "praveendath92",
            "website": "University of Southern California",
            "phone": "8879006132",
            "info": "20th May-30th July"
        },
        {
            "name": "Raaz Dwivedi",
            "lat": "37.42346593390034",
            "lng": "-122.1689274018554",
            "ldapid": "praveendath92",
            "website": "Stanford, California",
            "phone": "9619509136",
            "info": "15th May - 12th July"
        },
        {
            "name": "T Meghasyam",
            "lat": "34.690083",
            "lng": "135.195511",
            "ldapid": "praveendath92",
            "website": "Sysmex, Kobe",
            "phone": "9820703063",
            "info": "15 May - 10 July"
        },
        {
            "name": "Akshay Shetty",
            "lat": "52.153598089876056",
            "lng": "-1.61766549999993",
            "ldapid": "akshayshetty",
            "website": "Cranfield University",
            "phone": "9004030673",
            "info": "05th May to 17th July"
        },
        {
            "name": "S Krishna Savant",
            "lat": "40.354772215005745",
            "lng": "-80.00511667187493",
            "ldapid": "sk.savant",
            "website": "Carnegie Mellon University, Pittsburgh",
            "phone": "9757033532",
            "info": "May 12 - July 15"
        },
        {
            "name": "Pankhuri",
            "lat": "51.5017860416995",
            "lng": "-1.26610299999993",
            "ldapid": "pankhuri",
            "website": "Univ. of Bristol",
            "phone": "9820685184",
            "info": "12th May-13th July"
        },
        {
            "name": "Shomit Goyal",
            "lat": "51.9373751564376",
            "lng": "-101.46141549999993",
            "ldapid": "shomit",
            "website": "Ecole Polytechnique de Montral",
            "phone": "9757418315",
            "info": ""
        },
        {
            "name": "Shubham Yadav",
            "lat": "33.256904798867666",
            "lng": "130.30616262500007",
            "ldapid": "shubham_dscorpio",
            "website": "Tanaka Holdings, Saga, Japan",
            "phone": "9967565318",
            "info": ""
        },
        {
            "name": "Vishal",
            "lat": "47.40446605417739",
            "lng": "8.497395306274484",
            "ldapid": "vishal_kansal",
            "website": "ETH Zurich",
            "phone": "9930246010",
            "info": ""
        },
        {
            "name": "Sayantam Datta",
            "lat": "50.77108788256807",
            "lng": "6.07825735156257",
            "ldapid": "sayantam.datta",
            "website": "FH Aachen",
            "phone": "8976147362",
            "info": ""
        },
        {
            "name": "Ashwin Kachhara",
            "lat": "35.68768203786691",
            "lng": "139.7008464628907",
            "ldapid": "ashwin.kachhara",
            "website": "Sony / Tokyo",
            "phone": "8879006186",
            "info": "13 May - 12 July"
        },
        {
            "name": "Kumar Goutam",
            "lat": "42.448243150270294",
            "lng": "-76.47949239666741",
            "ldapid": "kumargoutam",
            "website": "Cornell University, Ithaca, NY",
            "phone": "+91-7208242960",
            "info": ""
        },
        {
            "name": "S Prasanna",
            "lat": "50.8405160568603",
            "lng": "12.09327200000007",
            "ldapid": "110260021",
            "website": "siegen university",
            "phone": "09769531998",
            "info": ""
        },
        {
            "name": "Suman Rao",
            "lat": "34.68727199160176",
            "lng": "135.49170950000007",
            "ldapid": "suman.rao",
            "website": "Daikin, Shiga, near Osaka",
            "phone": "9820849610",
            "info": ""
        },
        {
            "name": "Sparsh Chadha",
            "lat": "54.58452518037202",
            "lng": "-5.935077876403739",
            "ldapid": "sparshchadha",
            "website": "Queen's University, Belfast",
            "phone": "9833724949",
            "info": ""
        },
        {
            "name": "Harshit Malik",
            "lat": "51.71329853527743",
            "lng": "8.74244192187507",
            "ldapid": "harshit.malik",
            "website": "University of Paderborn",
            "phone": "9869459132",
            "info": ""
        },
        {
            "name": "Vighnesh Vatsal",
            "lat": "50.77152212908867",
            "lng": "6.0775707060547575",
            "ldapid": "vighnesh.vatsal",
            "website": "RWTH Aachen",
            "phone": "9867170316",
            "info": "2nd May to 15th July"
        },
        {
            "name": "S S Kausik",
            "lat": "49.42871664236476",
            "lng": "7.73719289843757",
            "ldapid": "sskausik08",
            "website": "Fraunhofer ITWM, Kaiserslautern",
            "phone": "919930291564",
            "info": ""
        },
        {
            "name": "Ayush Kanodia",
            "lat": "48.20258387578788",
            "lng": "16.37793996875007",
            "ldapid": "kanodiaayush",
            "website": "IST Austria, Vienna",
            "phone": "8879382227",
            "info": ""
        },
        {
            "name": "Akshit",
            "lat": "49.0770026874554",
            "lng": "8.394398480102609",
            "ldapid": "akshit05",
            "website": "KIT, Karlsruhe",
            "phone": "9969011483",
            "info": "1 May - 16 July"
        },
        {
            "name": "Sampath",
            "lat": "45.4985138804746",
            "lng": "-73.53416940624993",
            "ldapid": "sampath.satti",
            "website": "Ecole Polytechnique de Montreal",
            "phone": "9004076975",
            "info": ""
        },
        {
            "name": "Nikunj Saunshi",
            "lat": "47.66525962295048",
            "lng": "-122.17339059765618",
            "ldapid": "nikunj007",
            "website": "Microsoft Research",
            "phone": "9920488356",
            "info": ""
        },
        {
            "name": "Abhimanyu Dhariwal",
            "lat": "51.309894833152384",
            "lng": "9.47303274218757",
            "ldapid": "abhimanyu_dhariwal",
            "website": "Universitat Kassel, Kassel",
            "phone": "9820849587",
            "info": ""
        },
        {
            "name": "P Sudarshan Prasanna",
            "lat": "32.111498449109824",
            "lng": "-81.23833200390618",
            "ldapid": "psp_aero",
            "website": "Gulfstream, Savannah, Georgia",
            "phone": "9594148910",
            "info": ""
        },
        {
            "name": "Sridhar Kandimalla",
            "lat": "43.60412452591439",
            "lng": "-79.44481393749993",
            "ldapid": "sridharkandimalla",
            "website": "University of Toronto, Toronto",
            "phone": "9820719636",
            "info": ""
        },
        {
            "name": "Siddharth Buddhiraju",
            "lat": "48.99811564361196",
            "lng": "12.10151174609382",
            "ldapid": "siddharth.buddhiraju",
            "website": "Universitat Regensburg",
            "phone": "9987065342",
            "info": "Munich/Regensburg, Germany"
        },
        {
            "name": "C. Yeshwanth",
            "lat": "52.274764078035275",
            "lng": "10.51124075000007",
            "ldapid": "yeshwanthc",
            "website": "TU Braunschweig, Braunschweig",
            "phone": "9769532063",
            "info": ""
        },
        {
            "name": "Yash Tambawala",
            "lat": "51.28241604909082",
            "lng": "-114.11766549999993",
            "ldapid": "yash.tambawala",
            "website": "University of Alberta",
            "phone": "9833311423",
            "info": ""
        },
        {
            "name": "Mritunjay Prasad",
            "lat": "40.443536747192304",
            "lng": "-79.9429752534179",
            "ldapid": "mritunjay",
            "website": "Robotics Institute, Carnegie Mellon University",
            "phone": "9172365121",
            "info": ""
        },
        {
            "name": "Deepali Adlakha",
            "lat": "52.113135959320935",
            "lng": "10.62110403125007",
            "ldapid": "11d170020",
            "website": "TU Braunschweig",
            "phone": "7738487224",
            "info": "Braunschweig, Germany"
        },
        {
            "name": "Astha Agarwal",
            "lat": "46.43015451499415",
            "lng": "1.89795950000007",
            "ldapid": "astha23",
            "website": "INRIA Rhone-Alpes",
            "phone": "+918879588766",
            "info": ""
        },
        {
            "name": "Anmol Garg",
            "lat": "43.5882115332915",
            "lng": "6.07276418750007",
            "ldapid": "garganmol1993",
            "website": "INRIA Sophia Antipolis",
            "phone": "8879507283",
            "info": ""
        },
        {
            "name": "Aditya Choudhary",
            "lat": "49.48941526749249",
            "lng": "-115.17235299999993",
            "ldapid": "aditya.choudhary",
            "website": "University of Alberta",
            "phone": "9004280422",
            "info": ""
        },
        {
            "name": "Rahul Singhal",
            "lat": "52.26972209273355",
            "lng": "10.51398733203132",
            "ldapid": "rahulsinghal",
            "website": "TU Braunschweig",
            "phone": "9167277475",
            "info": ""
        },{"name" : "Anurag Mukkara",
"lat" : "42.48006008714759","lng" : "-76.41258737499993","ldapid" : "anurag6892","website" : "Cornell University, Ithaca","phone" : "9920136941","info" : "5th May to 15th July"},{"name" : "Anshul Purohit",
"lat" : "52.266360450585275","lng" : "10.528406887695382","ldapid" : "anshulp","website" : "TU-Braunschweig","phone" : "8879385750","info" : ""},{"name" : "Rucha Kulkarni",
"lat" : "55.677090299670354","lng" : "12.51950719897468","ldapid" : "123050087","website" : "CRITT, Copenhagen Business School, Copenhagen","phone" : "9167466214","info" : ""},{"name" : "Advaith Vishwanath",
"lat" : "35.44149758120713","lng" : "139.36164358203132","ldapid" : "advaith.vishwanath","website" : "SONY, Atsugi, Japan","phone" : "+919819924764","info" : ""},{"name" : "Gaurav Sultania",
"lat" : "51.5017860416995","lng" : "-113.76610299999993","ldapid" : "Mumbai","website" : "India","phone" : "9930200522","info" : "University of Calgary"}]}